{
  "countries": [
    {
      "iso2": "FR",
      "iso3": "FRA",
      "name": "France",
      "cities": [
        {
          "name": "Yerres",
          "lat": 48.716811,
          "lng": 2.4879753,
          "minTemperature": 16.1,
          "maxTemperature": 29.5,
          "windDirection": 229
        },
        {
          "name": "Bazens",
          "lat": 44.2630104,
          "lng": 0.422907,
          "minTemperature": 18.6,
          "maxTemperature": 32.4,
          "windDirection": 356
        },
        {
          "name": "Azay-le-Brule",
          "lat": 46.400949,
          "lng": -0.2483636,
          "minTemperature": 14,
          "maxTemperature": 28.4,
          "windDirection": 324
        },
        {
          "name": "Agde",
          "lat": 43.3134787,
          "lng": 3.4771629,
          "minTemperature": 22.6,
          "maxTemperature": 34.1,
          "windDirection": 181
        },
        {
          "name": "Flins-sur-Seine",
          "lat": 48.9623407,
          "lng": 1.8684146,
          "minTemperature": 14.7,
          "maxTemperature": 28.9,
          "windDirection": 226
        },
        {
          "name": "Angoulins",
          "lat": 46.1049651,
          "lng": -1.1093352,
          "minTemperature": 15.6,
          "maxTemperature": 26.5,
          "windDirection": 296
        },
        {
          "name": "Auxey-Duresses",
          "lat": 46.9862244,
          "lng": 4.7467921,
          "minTemperature": 20.7,
          "maxTemperature": 33.8,
          "windDirection": 297
        },
        {
          "name": "Ginestet",
          "lat": 44.91066,
          "lng": 0.42875,
          "minTemperature": 17.9,
          "maxTemperature": 33.1,
          "windDirection": 3
        },
        {
          "name": "Douchy-les-Mines",
          "lat": 50.2988884,
          "lng": 3.3909158,
          "minTemperature": 14,
          "maxTemperature": 28.1,
          "windDirection": 224
        },
        {
          "name": "Beaulieu-sur-Dordogne",
          "lat": 44.9821505,
          "lng": 1.8289709,
          "minTemperature": 19.2,
          "maxTemperature": 32.5,
          "windDirection": 355
        }
      ]
    },
    {
      "iso2": "DE",
      "iso3": "DEU",
      "name": "Germany",
      "cities": [
        {
          "name": "Haide",
          "lat": 51.3044176,
          "lng": 8.68101,
          "minTemperature": 13.5,
          "maxTemperature": 20.9,
          "windDirection": 282
        },
        {
          "name": "Seelitz",
          "lat": 51.0313851,
          "lng": 12.8209491,
          "minTemperature": 17.8,
          "maxTemperature": 29.6,
          "windDirection": 310
        },
        {
          "name": "Minden",
          "lat": 52.2881045,
          "lng": 8.9168852,
          "minTemperature": 14.7,
          "maxTemperature": 23.9,
          "windDirection": 281
        },
        {
          "name": "Morenhoven",
          "lat": 50.6658206,
          "lng": 6.9550154,
          "minTemperature": 14.6,
          "maxTemperature": 26.2,
          "windDirection": 302
        },
        {
          "name": "Pforzheim",
          "lat": 48.8908846,
          "lng": 8.7029532,
          "minTemperature": 18.1,
          "maxTemperature": 31.4,
          "windDirection": 273
        },
        {
          "name": "Rheurdt",
          "lat": 51.4677722,
          "lng": 6.4690655,
          "minTemperature": 18,
          "maxTemperature": 25.3,
          "windDirection": 267
        },
        {
          "name": "Mengerskirchen",
          "lat": 50.5653508,
          "lng": 8.1550248,
          "minTemperature": 16.7,
          "maxTemperature": 24.7,
          "windDirection": 303
        },
        {
          "name": "Passau",
          "lat": 48.5748229,
          "lng": 13.4609744,
          "minTemperature": 15.4,
          "maxTemperature": 32.6,
          "windDirection": 287
        },
        {
          "name": "Mochenwangen",
          "lat": 47.8760016,
          "lng": 9.6359092,
          "minTemperature": 17.7,
          "maxTemperature": 30.9,
          "windDirection": 231
        },
        {
          "name": "Adelebsen",
          "lat": 51.579484,
          "lng": 9.7524477,
          "minTemperature": 13.8,
          "maxTemperature": 25.2,
          "windDirection": 284
        }
      ]
    },
    {
      "iso2": "IT",
      "iso3": "ITA",
      "name": "Italy",
      "cities": [
        {
          "name": "Castelseprio",
          "lat": 45.7182628,
          "lng": 8.8628523,
          "minTemperature": 19.8,
          "maxTemperature": 33.1,
          "windDirection": 305
        },
        {
          "name": "Gioia del Colle",
          "lat": 40.796728,
          "lng": 16.92359,
          "minTemperature": 19,
          "maxTemperature": 30.3,
          "windDirection": 346
        },
        {
          "name": "Caorso",
          "lat": 45.0495995,
          "lng": 9.8743749,
          "minTemperature": 22.5,
          "maxTemperature": 35.7,
          "windDirection": 64
        },
        {
          "name": "Camporosso",
          "lat": 43.8151011,
          "lng": 7.6284178,
          "minTemperature": 24.1,
          "maxTemperature": 31.8,
          "windDirection": 135
        },
        {
          "name": "Pellezzano",
          "lat": 40.725211,
          "lng": 14.757443,
          "minTemperature": 25.2,
          "maxTemperature": 31.1,
          "windDirection": 193
        },
        {
          "name": "Cancello",
          "lat": 45.5170056,
          "lng": 11.0893268,
          "minTemperature": 20.3,
          "maxTemperature": 30.4,
          "windDirection": 305
        },
        {
          "name": "Casal di Principe",
          "lat": 41.011412,
          "lng": 14.124825,
          "minTemperature": 25.1,
          "maxTemperature": 36.4,
          "windDirection": 241
        },
        {
          "name": "Cancello ed Arnone",
          "lat": 41.074112,
          "lng": 14.027423,
          "minTemperature": 25.4,
          "maxTemperature": 36.2,
          "windDirection": 257
        },
        {
          "name": "Campodipietra",
          "lat": 41.557028,
          "lng": 14.746032,
          "minTemperature": 20.7,
          "maxTemperature": 34.6,
          "windDirection": 29
        },
        {
          "name": "Camino",
          "lat": 45.1621424,
          "lng": 8.2874026,
          "minTemperature": 21.8,
          "maxTemperature": 33.3,
          "windDirection": 169
        }
      ]
    },
    {
      "iso2": "ES",
      "iso3": "ESP",
      "name": "Spain",
      "cities": [
        {
          "name": "Penarroya-Pueblonuevo",
          "lat": 38.3026178,
          "lng": -5.2714828,
          "minTemperature": 23.2,
          "maxTemperature": 40.6,
          "windDirection": 200
        },
        {
          "name": "Rielves",
          "lat": 39.9607218,
          "lng": -4.1930252,
          "minTemperature": 21.4,
          "maxTemperature": 41.5,
          "windDirection": 316
        },
        {
          "name": "Olite",
          "lat": 42.4813623,
          "lng": -1.6512224,
          "minTemperature": 18.6,
          "maxTemperature": 36.2,
          "windDirection": 247
        },
        {
          "name": "Valladolises",
          "lat": 37.7778385,
          "lng": -1.1225445,
          "minTemperature": 24.5,
          "maxTemperature": 33.8,
          "windDirection": 93
        },
        {
          "name": "Orio",
          "lat": 43.2760488,
          "lng": -2.127262,
          "minTemperature": 19.3,
          "maxTemperature": 24.7,
          "windDirection": 349
        },
        {
          "name": "Martorell",
          "lat": 41.4769177,
          "lng": 1.9283971,
          "minTemperature": 23.1,
          "maxTemperature": 34.4,
          "windDirection": 129
        },
        {
          "name": "Madrigalejo",
          "lat": 39.1389963,
          "lng": -5.6272875,
          "minTemperature": 19.9,
          "maxTemperature": 40.6,
          "windDirection": 255
        },
        {
          "name": "Rebolledo",
          "lat": 38.3435643,
          "lng": -0.6085975,
          "minTemperature": 23.3,
          "maxTemperature": 33,
          "windDirection": 121
        },
        {
          "name": "Orial",
          "lat": 43.3746825,
          "lng": -5.711651,
          "minTemperature": 13.8,
          "maxTemperature": 26.3,
          "windDirection": 353
        },
        {
          "name": "Legasa",
          "lat": 43.1303988,
          "lng": -1.6441185,
          "minTemperature": 17.2,
          "maxTemperature": 31,
          "windDirection": 284
        }
      ]
    },
    {
      "iso2": "UA",
      "iso3": "UKR",
      "name": "Ukraine",
      "cities": [
        {
          "name": "Cherkasy",
          "lat": 49.1460165,
          "lng": 31.2271744,
          "minTemperature": 14.1,
          "maxTemperature": 23.3,
          "windDirection": 319
        },
        {
          "name": "Sorotskoye",
          "lat": 49.37886,
          "lng": 25.84798,
          "minTemperature": 11.4,
          "maxTemperature": 25.2,
          "windDirection": 313
        },
        {
          "name": "Letychiv",
          "lat": 49.38286,
          "lng": 27.62306,
          "minTemperature": 13,
          "maxTemperature": 23.9,
          "windDirection": 317
        },
        {
          "name": "Horlivka",
          "lat": 48.3058686,
          "lng": 38.0027664,
          "minTemperature": 15.2,
          "maxTemperature": 24.1,
          "windDirection": 328
        },
        {
          "name": "Desna",
          "lat": 49.2844045,
          "lng": 28.5399831,
          "minTemperature": 12.5,
          "maxTemperature": 23.6,
          "windDirection": 317
        },
        {
          "name": "Melitopol",
          "lat": 46.8467267,
          "lng": 35.3827281,
          "minTemperature": 17.3,
          "maxTemperature": 27.1,
          "windDirection": 328
        },
        {
          "name": "Novomoskovsk",
          "lat": 48.6358512,
          "lng": 35.2595541,
          "minTemperature": 16.2,
          "maxTemperature": 25,
          "windDirection": 321
        },
        {
          "name": "Rodinskoye",
          "lat": 48.35199,
          "lng": 37.20602,
          "minTemperature": 15.1,
          "maxTemperature": 23.7,
          "windDirection": 321
        },
        {
          "name": "Novyy Buh",
          "lat": 47.69308,
          "lng": 32.5216,
          "minTemperature": 15.2,
          "maxTemperature": 26,
          "windDirection": 329
        },
        {
          "name": "Obukhov",
          "lat": 47.472935,
          "lng": 40.017292,
          "minTemperature": 16.8,
          "maxTemperature": 25.9,
          "windDirection": 327
        }
      ]
    }
  ]
}





{
  "countries": [
    {
      "iso2": "FR",
      "iso3": "FRA",
      "name": "France",
      "cities": [
        {
          "name": "Yerres",
          "lat": 48.716811,
          "lng": 2.4879753,
          "windDirection": 229,
          "country": "France"
        },
        {
          "name": "Bazens",
          "lat": 44.2630104,
          "lng": 0.422907,
          "windDirection": 356,
          "country": "France"
        },
        {
          "name": "Azay-le-Brule",
          "lat": 46.400949,
          "lng": -0.2483636,
          "windDirection": 324,
          "country": "France"
        },
        {
          "name": "Agde",
          "lat": 43.3134787,
          "lng": 3.4771629,
          "windDirection": 181,
          "country": "France"
        },
        {
          "name": "Flins-sur-Seine",
          "lat": 48.9623407,
          "lng": 1.8684146,
          "windDirection": 226,
          "country": "France"
        },
        {
          "name": "Angoulins",
          "lat": 46.1049651,
          "lng": -1.1093352,
          "windDirection": 296,
          "country": "France"
        },
        {
          "name": "Auxey-Duresses",
          "lat": 46.9862244,
          "lng": 4.7467921,
          "windDirection": 297,
          "country": "France"
        },
        {
          "name": "Ginestet",
          "lat": 44.91066,
          "lng": 0.42875,
          "windDirection": 3,
          "country": "France"
        },
        {
          "name": "Douchy-les-Mines",
          "lat": 50.2988884,
          "lng": 3.3909158,
          "windDirection": 224,
          "country": "France"
        },
        {
          "name": "Beaulieu-sur-Dordogne",
          "lat": 44.9821505,
          "lng": 1.8289709,
          "windDirection": 355,
          "country": "France"
        }
      ]
    },
    {
      "iso2": "DE",
      "iso3": "DEU",
      "name": "Germany",
      "cities": [
        {
          "name": "Haide",
          "lat": 51.3044176,
          "lng": 8.68101,
          "windDirection": 282,
          "country": "Germany"
        },
        {
          "name": "Seelitz",
          "lat": 51.0313851,
          "lng": 12.8209491,
          "windDirection": 310,
          "country": "Germany"
        },
        {
          "name": "Minden",
          "lat": 52.2881045,
          "lng": 8.9168852,
          "windDirection": 281,
          "country": "Germany"
        },
        {
          "name": "Morenhoven",
          "lat": 50.6658206,
          "lng": 6.9550154,
          "windDirection": 302,
          "country": "Germany"
        },
        {
          "name": "Pforzheim",
          "lat": 48.8908846,
          "lng": 8.7029532,
          "windDirection": 273,
          "country": "Germany"
        },
        {
          "name": "Rheurdt",
          "lat": 51.4677722,
          "lng": 6.4690655,
          "windDirection": 267,
          "country": "Germany"
        },
        {
          "name": "Mengerskirchen",
          "lat": 50.5653508,
          "lng": 8.1550248,
          "windDirection": 303,
          "country": "Germany"
        },
        {
          "name": "Passau",
          "lat": 48.5748229,
          "lng": 13.4609744,
          "windDirection": 287,
          "country": "Germany"
        },
        {
          "name": "Mochenwangen",
          "lat": 47.8760016,
          "lng": 9.6359092,
          "windDirection": 231,
          "country": "Germany"
        },
        {
          "name": "Adelebsen",
          "lat": 51.579484,
          "lng": 9.7524477,
          "windDirection": 284,
          "country": "Germany"
        }
      ]
    },
    {
      "iso2": "IT",
      "iso3": "ITA",
      "name": "Italy",
      "cities": [
        {
          "name": "Castelseprio",
          "lat": 45.7182628,
          "lng": 8.8628523,
          "windDirection": 305,
          "country": "Italy"
        },
        {
          "name": "Gioia del Colle",
          "lat": 40.796728,
          "lng": 16.92359,
          "windDirection": 346,
          "country": "Italy"
        },
        {
          "name": "Caorso",
          "lat": 45.0495995,
          "lng": 9.8743749,
          "windDirection": 64,
          "country": "Italy"
        },
        {
          "name": "Camporosso",
          "lat": 43.8151011,
          "lng": 7.6284178,
          "windDirection": 135,
          "country": "Italy"
        },
        {
          "name": "Pellezzano",
          "lat": 40.725211,
          "lng": 14.757443,
          "windDirection": 193,
          "country": "Italy"
        },
        {
          "name": "Cancello",
          "lat": 45.5170056,
          "lng": 11.0893268,
          "windDirection": 305,
          "country": "Italy"
        },
        {
          "name": "Casal di Principe",
          "lat": 41.011412,
          "lng": 14.124825,
          "windDirection": 241,
          "country": "Italy"
        },
        {
          "name": "Cancello ed Arnone",
          "lat": 41.074112,
          "lng": 14.027423,
          "windDirection": 257,
          "country": "Italy"
        },
        {
          "name": "Campodipietra",
          "lat": 41.557028,
          "lng": 14.746032,
          "windDirection": 29,
          "country": "Italy"
        },
        {
          "name": "Camino",
          "lat": 45.1621424,
          "lng": 8.2874026,
          "windDirection": 169,
          "country": "Italy"
        }
      ]
    },
    {
      "iso2": "ES",
      "iso3": "ESP",
      "name": "Spain",
      "cities": [
        {
          "name": "Penarroya-Pueblonuevo",
          "lat": 38.3026178,
          "lng": -5.2714828,
          "windDirection": 200,
          "country": "Spain"
        },
        {
          "name": "Rielves",
          "lat": 39.9607218,
          "lng": -4.1930252,
          "windDirection": 316,
          "country": "Spain"
        },
        {
          "name": "Olite",
          "lat": 42.4813623,
          "lng": -1.6512224,
          "windDirection": 247,
          "country": "Spain"
        },
        {
          "name": "Valladolises",
          "lat": 37.7778385,
          "lng": -1.1225445,
          "windDirection": 93,
          "country": "Spain"
        },
        {
          "name": "Orio",
          "lat": 43.2760488,
          "lng": -2.127262,
          "windDirection": 349,
          "country": "Spain"
        },
        {
          "name": "Martorell",
          "lat": 41.4769177,
          "lng": 1.9283971,
          "windDirection": 129,
          "country": "Spain"
        },
        {
          "name": "Madrigalejo",
          "lat": 39.1389963,
          "lng": -5.6272875,
          "windDirection": 255,
          "country": "Spain"
        },
        {
          "name": "Rebolledo",
          "lat": 38.3435643,
          "lng": -0.6085975,
          "windDirection": 121,
          "country": "Spain"
        },
        {
          "name": "Orial",
          "lat": 43.3746825,
          "lng": -5.711651,
          "windDirection": 353,
          "country": "Spain"
        },
        {
          "name": "Legasa",
          "lat": 43.1303988,
          "lng": -1.6441185,
          "windDirection": 284,
          "country": "Spain"
        }
      ]
    },
    {
      "iso2": "UA",
      "iso3": "UKR",
      "name": "Ukraine",
      "cities": [
        {
          "name": "Cherkasy",
          "lat": 49.1460165,
          "lng": 31.2271744,
          "windDirection": 319,
          "country": "Ukraine"
        },
        {
          "name": "Sorotskoye",
          "lat": 49.37886,
          "lng": 25.84798,
          "windDirection": 313,
          "country": "Ukraine"
        },
        {
          "name": "Letychiv",
          "lat": 49.38286,
          "lng": 27.62306,
          "windDirection": 317,
          "country": "Ukraine"
        },
        {
          "name": "Horlivka",
          "lat": 48.3058686,
          "lng": 38.0027664,
          "windDirection": 328,
          "country": "Ukraine"
        },
        {
          "name": "Desna",
          "lat": 49.2844045,
          "lng": 28.5399831,
          "windDirection": 317,
          "country": "Ukraine"
        },
        {
          "name": "Melitopol",
          "lat": 46.8467267,
          "lng": 35.3827281,
          "windDirection": 328,
          "country": "Ukraine"
        },
        {
          "name": "Novomoskovsk",
          "lat": 48.6358512,
          "lng": 35.2595541,
          "windDirection": 321,
          "country": "Ukraine"
        },
        {
          "name": "Rodinskoye",
          "lat": 48.35199,
          "lng": 37.20602,
          "windDirection": 321,
          "country": "Ukraine"
        },
        {
          "name": "Novyy Buh",
          "lat": 47.69308,
          "lng": 32.5216,
          "windDirection": 329,
          "country": "Ukraine"
        },
        {
          "name": "Obukhov",
          "lat": 47.472935,
          "lng": 40.017292,
          "windDirection": 327,
          "country": "Ukraine"
        }
      ]
    }
  ]
}
